[
    {
        "address": "19 Hoàng Diệu, Điện Bàn, Hoàn Kiếm",
        "area": "Hoàn Kiếm",
        "entrance fee": "?",
        "id": "1",
        "location": [
            21.0498295,
            105.7440643
        ],
        "name": "Bể Bơi Quân Đội",
        "openhours": "?",
        "phone": "02422415161",
        "postcode": "cb58nt",
        "pricerange": "?",
        "type": "bể bơi"
    },
    {
        "address": "166 Ngõ Xã Đàn 2, Nam Đồng",
        "area": "Ba Đình",
        "entrance fee": "?",
        "id": "2",
        "location": [
            21.014359,
            105.8117771
        ],
        "name": "Cafe phim Đống Đa",
        "openhours": "?",
        "phone": "02473033088",
        "postcode": "cb58as",
        "pricerange": "?",
        "type": "nhà hát"
    },
    {
        "address": "19C Hoàng Diệu, Điện Bàn, Ba Đình",
        "area": "Ba Đình",
        "entrance fee": "miễn phí",
        "id": "3",
        "location": [
            21.0369023,
            105.832478
        ],
        "name": "Tượng đài Lenin",
        "openhours": "Lăng mở cửa từ 7h30 đến 10h30 từ thứ 2 đến thứ 5 , từ 7h30 đến 11h vào thứ 7 và chủ nhật , Lăng đóng cửa vào thứ 6 .",
        "phone": "02437345427",
        "postcode": "cb58bs",
        "pricerange": "miễn phí",
        "type": "công trình kiến trúc"
    },
    {
        "address": "73, Đường Vạn Bảo, Phường Kim Mã",
        "area": "Ba Đình",
        "entrance fee": "150,000 vnđ",
        "id": "4",
        "location": [
            21.0381746,
            105.8309645
        ],
        "name": "Câu Lạc Bộ Hà Nội Ultimate",
        "openhours": "mở cửa từ 10:30 p.m đến 03:30 a.m",
        "phone": "08044287",
        "postcode": "cb23na",
        "pricerange": "vừa phải",
        "type": "câu lạc bộ đêm"
    },
    {
        "address": "19 Ngọc Hà, Đội Cấn",
        "area": "Ba Đình",
        "entrance fee": "miễn phí",
        "id": "5",
        "location": [
            21.0356011,
            105.8326289
        ],
        "name": "Bảo Tàng Hồ Chí Minh",
        "openhours": "?",
        "phone": "02438463757",
        "postcode": "cb11ln",
        "pricerange": "miễn phí",
        "type": "bảo tàng"
    },
    {
        "address": "97 Hoàng Cầu, Chợ Dừa, Đống Đa",
        "area": "Đống Đa",
        "entrance fee": "miễn phí",
        "id": "6",
        "location": [
            21.0160826,
            105.8140601
        ],
        "name": "Bảo Tàng Mỹ Thuật Việt Nam 2",
        "openhours": "bảo tàng mở cửa sáng từ 8:00 đến 11:30 , chiều từ 13:00 đến 16:00 , hàng tuần ngoại trừ chủ nhật",
        "phone": "02437332131",
        "postcode": "cb21sj",
        "pricerange": "miễn phí",
        "type": "bảo tàng"
    },
    {
        "address": "Đ. Nguyễn Văn Huyên, Quan Hoa",
        "area": "Cầu Giấy",
        "entrance fee": "miễn phí",
        "id": "7",
        "location": [
            21.0403422,
            105.7899807
        ],
        "name": "Bảo tàng Dân tộc học Việt Nam",
        "openhours": "bảo tàng mở cửa hàng ngày từ 8:00 đến 17:30",
        "phone": "02437562193",
        "postcode": "cb30af",
        "pricerange": "miễn phí",
        "type": "bảo tàng"
    },
    {
        "address": "108, Nguyễn Du",
        "area": "Hoàn Kiếm",
        "entrance fee": "?",
        "id": "8",
        "location": [
            21.0437024,
            105.8314608
        ],
        "name": "Trung Tâm Công Nghệ & Thiết Kế Tàu Thuỷ Cao Tốc",
        "openhours": "?",
        "phone": "0986676689",
        "postcode": "cb58sx",
        "pricerange": "?",
        "type": "thuyền cho thuê"
    },
    {
        "address": "Tòa nhà Hội Nhà báo Việt Nam, Lô E2, D. Đình Nghệ, Yên Hoà",
        "area": "Cầu Giấy",
        "entrance fee": "105,000 vnđ",
        "id": "9",
        "location": [
            21.0207944,
            105.79594
        ],
        "name": "Bảo tàng Báo chí Việt Nam",
        "openhours": "bảo tàng mở cửa hàng sáng từ 8:30 đến 12:30 ngoại trừ thứ bảy",
        "phone": "0986986110",
        "postcode": "cb30aq",
        "pricerange": "vừa phải",
        "type": "bảo tàng"
    },
    {
        "address": "58 Kim Mã",
        "area": "Ba Đình",
        "entrance fee": "?",
        "id": "10",
        "location": [
            21.0271832,
            105.8465809
        ],
        "name": "Nhà Hát Nghệ Thuật Đương Đại Việt Nam",
        "openhours": "?",
        "phone": "02438430913",
        "postcode": "cb23pj",
        "pricerange": "?",
        "type": "nhà hát"
    },
    {
        "address": "36 Lý Thường Kiệt, Hàng Bài",
        "area": "Hoàn Kiếm",
        "entrance fee": "miễn phí",
        "id": "11",
        "location": [
            21.0221676,
            105.8482003
        ],
        "name": "Bảo Tàng Phụ Nữ Việt Nam",
        "openhours": "?",
        "phone": "02438259936",
        "postcode": "cb13ef",
        "pricerange": "miễn phí",
        "type": "bảo tàng"
    },
    {
        "address": "Đường Phan Văn Trường, Dịch Vọng Hậu",
        "area": "Cầu Giấy",
        "entrance fee": "miễn phí",
        "id": "12",
        "location": [
            21.0351051,
            105.7927321
        ],
        "name": "Bảo Tàng Binh Chủng Hoá Học",
        "openhours": "bảo tàng mở cửa từ thứ hai đến thứ sau , sáng từ 8:00 đến 11:00 , chiều từ 13:00 đến 16:00",
        "phone": "01223694264",
        "postcode": "cb39ey",
        "pricerange": "miễn phí",
        "type": "bảo tàng"
    },
    {
        "address": "28A Điện Biên Phủ, Điện Bàn",
        "area": "Ba Đình",
        "entrance fee": "miễn phí",
        "id": "13",
        "location": [
            21.0221875,
            105.8482003
        ],
        "name": "Bảo tàng Lịch sử Quân sự Việt Nam",
        "openhours": "bảo tàng mở cửa hàng ngày trong tuần trừ thứ sáu , sáng từ 8:00 đến 11:30 , chiều từ 13:00 đến 16:30",
        "phone": "02462531367",
        "postcode": "cb21su",
        "pricerange": "miễn phí",
        "type": "bảo tàng"
    },
    {
        "address": "6 Phạm Ngũ Lão, Phan Chu Trinh",
        "area": "Hoàn Kiếm",
        "entrance fee": "200,000 vnđ",
        "id": "14",
        "location": [
            21.023484,
            105.8525669
        ],
        "name": "Bảo tàng Địa chất",
        "openhours": "bảo tàng mở cửa từ thứ hai đến thứ sáu hàng tuần , từ 8:00 đến 17:00",
        "phone": "02439331496",
        "postcode": "cb58ld",
        "pricerange": "sang trọng",
        "type": "bảo tàng"
    },
    {
        "address": "35 Trần Phú, Điện Bàn",
        "area": "Ba Đình",
        "entrance fee": "150,000 vnđ",
        "id": "15",
        "location": [
            21.0281656,
            105.8441126
        ],
        "name": "Công Viên Lê Nin - Đối Diện 35 Trần Phú",
        "openhours": "mở cửa từ 10:00 a.m đến 6:00 p.m trong tháng 4 đến tháng 9",
        "phone": "01223336265",
        "postcode": "cb21jf",
        "pricerange": "vừa phải",
        "type": "công viên"
    },
    {
        "address": "66 Nguyễn Thái Học, Điện Bàn",
        "area": "Ba Đình",
        "entrance fee": "miễn phí",
        "id": "16",
        "location": [
            21.023588,
            105.8460008
        ],
        "name": "Bảo tàng Mỹ thuật Việt Nam",
        "openhours": "bảo tàng mở cửa hàng ngày từ 8:30 đến 17:00",
        "phone": "01223307402",
        "postcode": "cb23bj",
        "pricerange": "miễn phí",
        "type": "bảo tàng"
    },
    {
        "address": "Số 2 Chương Dương Độ",
        "area": "Hoàn Kiếm",
        "entrance fee": "?",
        "id": "17",
        "location": [
            21.0254303,
            105.8647548
        ],
        "name": "Khu vui chơi Kibi - Chương Dương Độ",
        "openhours": "?",
        "phone": "0969809850",
        "postcode": "cb18dw",
        "pricerange": "?",
        "type": "khu vui chơi giải trí"
    },
    {
        "address": "104 Phố Lý Thái Tổ, Tràng Tiền",
        "area": "Hoàn Kiếm",
        "entrance fee": "miễn phí",
        "id": "18",
        "location": [
            21.0255491,
            105.8647548
        ],
        "name": "Hồ gươm park",
        "openhours": "từ tháng 5 đến tháng 9",
        "phone": "01223446100",
        "postcode": "cb18dw",
        "pricerange": "miễn phí",
        "type": "công viên"
    },
    {
        "address": "10 Điện Biên Phủ, Cửa Nam",
        "area": "Ba Đình",
        "entrance fee": "miễn phí",
        "id": "19",
        "location": [
            21.0261591,
            105.845679
        ],
        "name": "Trường Cao Đẳng Dầu Khí Việt Nam - Cn Văn Phòng",
        "openhours": "",
        "phone": "0916483910",
        "postcode": "cb23bu",
        "pricerange": "miễn phí",
        "type": "đại học"
    },
    {
        "address": "Số 10, Đường Đ. Nguyễn Văn Huyên, Dịch Vọng",
        "area": "Cầu Giấy",
        "entrance fee": "miễn phí",
        "id": "20",
        "location": [
            21.0298835,
            105.8046947
        ],
        "name": "Trường Cao Đẳng Điện Tử - Điện Lạnh Hà Nội",
        "openhours": "trường mở cửa từ thứ hai đến thứ sáu , từ 7:30 đến 17:30",
        "phone": "02437673896",
        "postcode": "cb30ds",
        "pricerange": "miễn phí",
        "type": "đại học"
    },
    {
        "address": "Tầng 8 TTTM Vincom, Số 2 Phạm Ngọc Thạch, Kim Liên, Đống Đa",
        "area": "Đống Đa",
        "entrance fee": "?",
        "id": "21",
        "location": [
            21.0062674,
            105.8230623
        ],
        "name": "BHD Star Cinema",
        "openhours": "?",
        "phone": "02436374079",
        "postcode": "cb17dy",
        "pricerange": "?",
        "type": "rạp chiếu phim"
    },
    {
        "address": "Số 1 Ngõ 58 Phố Trần Bình, Mai Dịch",
        "area": "Cầu Giấy",
        "entrance fee": "75,000 vnđ",
        "id": "22",
        "location": [
            21.0383396,
            105.7753212
        ],
        "name": "Trường Cao Đẳng Du lịch và Thương mại",
        "openhours": "mở cửa hàng ngày từ 9 a.m đến 5 p.m",
        "phone": "0973219219",
        "postcode": "cb21tl",
        "pricerange": "vừa phải",
        "type": "đại học"
    },
    {
        "address": "36 Xuân Thủy, Dịch Vọng Hậu",
        "area": "Cầu Giấy",
        "entrance fee": "miễn phí",
        "id": "23",
        "location": [
            21.0296832,
            105.7906829
        ],
        "name": "Trường Cao Đẳng Kinh Tế Công Nghệ Hà Nội ( Hateco )",
        "openhours": "Trường mở cửa hàng ngày",
        "phone": "0822859668",
        "postcode": "cb39al",
        "pricerange": "miễn phí",
        "type": "đại học"
    },
    {
        "address": "42M Yên Phụ, Trúc Bạch",
        "area": "Ba Đình",
        "entrance fee": "150,000 vnđ",
        "id": "24",
        "location": [
            21.0477314,
            105.8380111
        ],
        "name": "Hero Bar",
        "openhours": "club mở cửa từ 21:00 đến 3:00",
        "phone": "0989264242",
        "postcode": "cb12jb",
        "pricerange": "vừa phải",
        "type": "câu lạc bộ đêm"
    },
    {
        "address": "266 Đội Cấn, Liễu Giai",
        "area": "Ba Đình",
        "entrance fee": "25,000 vnđ",
        "id": "25",
        "location": [
            21.0368308,
            105.7827683
        ],
        "name": "Trường Đại học Nguyễn Trãi",
        "openhours": "Trường mở cửa từ thứ hai đến thứ sáu , từ 8:00 đến 17:00",
        "phone": "02437547823",
        "postcode": "cb21rh",
        "pricerange": "rẻ",
        "type": "đại học"
    },
    {
        "address": "50 Vạn Bảo, Ngọc Khánh",
        "area": "Ba Đình",
        "entrance fee": "miễn phí",
        "id": "26",
        "location": [
            21.0368308,
            105.7827683
        ],
        "name": "Trường Đại Học Dân Lập Đông Đô",
        "openhours": "Trường mở cửa từ thứ hai đến thứ sáu , từ 8:00 đến 17:00",
        "phone": "02437547506",
        "postcode": "cb21dq",
        "pricerange": "miễn phí",
        "type": "đại học"
    },
    {
        "address": "Số 6 Vĩnh Phúc, Vĩnh Phú",
        "area": "Ba Đình",
        "entrance fee": "miễn phí",
        "id": "27",
        "location": [
            21.0368308,
            105.7827683
        ],
        "name": "Trường Đại Học Thủ Đô Hà Nội",
        "openhours": "Trường mở cửa từ thứ hai đến thứ sáu",
        "phone": "01223334200",
        "postcode": "cb23ap",
        "pricerange": "miễn phí",
        "type": "đại học"
    },
    {
        "address": "Số 36 Phố Lý Thái Tổ, Lý Thái Tổ",
        "area": "Hoàn Kiếm",
        "entrance fee": "?",
        "id": "28",
        "location": [
            21.0278873,
            105.8515829
        ],
        "name": "Cung Thiếu Nhi Hà Nội",
        "openhours": "?",
        "phone": "01223304705",
        "postcode": "cb58hy",
        "pricerange": "?",
        "type": "khu vui chơi giải trí"
    },
    {
        "address": "19 Lê Thánh Tông, Phan Chu Trinh",
        "area": "Hoàn Kiếm",
        "entrance fee": "miễn phí",
        "id": "29",
        "location": [
            21.0233457,
            105.8522266
        ],
        "name": "Bảo Tàng Sinh Học - Đại Học Quốc Gia Hà Nội",
        "openhours": "?",
        "phone": "0989171907",
        "postcode": "cb15dh",
        "pricerange": "miễn phí",
        "type": "bảo tàng"
    },
    {
        "address": "110B Ngọc Hà, Ngọc Hồ",
        "area": "Ba Đình",
        "entrance fee": "miễn phí",
        "id": "30",
        "location": [
            21.0233948,
            105.8390944
        ],
        "name": "Trường đại học Kinh Bắc",
        "openhours": "Trường mở cửa từ thứ hai đến thứ bảy , từ 7:00 đến 18:00",
        "phone": "02437547269",
        "postcode": "cb21ta",
        "pricerange": "miễn phí",
        "type": "đại học"
    },
    {
        "address": "2 Hùng Vương, Điện Bàn",
        "area": "Ba Đình",
        "entrance fee": "25,000 vnđ",
        "id": "31",
        "location": [
            21.0369023,
            105.832478
        ],
        "name": "Lăng Chủ tịch Hồ Chí Minh",
        "openhours": "mở cửa hàng ngày trong tuần ngoại trừ thứ 6 , từ 7:30 đến 10:30",
        "phone": "02438455128",
        "postcode": "cb23pq",
        "pricerange": "rẻ",
        "type": "công trình kiến trúc"
    },
    {
        "address": "Độc Lập, Điện Bàn",
        "area": "Ba Đình",
        "entrance fee": "miễn phí",
        "id": "32",
        "location": [
            21.0369549,
            105.8352434
        ],
        "name": "Tòa nhà Quốc hội Việt Nam",
        "openhours": "mở cửa từ thứ hai đến thứ bảy , từ 8:00 đến 18:00",
        "phone": "01223355397",
        "postcode": "cb23nz",
        "pricerange": "miễn phí",
        "type": "công trình kiến trúc"
    },
    {
        "address": "521 Kim Mã",
        "area": "Ba Đình",
        "entrance fee": "miễn phí",
        "id": "33",
        "location": [
            21.0384087,
            105.8087431
        ],
        "name": "Trường Đại Học RMIT",
        "openhours": "mở cửa từ 9 a.m đến 5 p.m",
        "phone": "02438330708",
        "postcode": "cb12ew",
        "pricerange": "miễn phí",
        "type": "đại học"
    },
    {
        "address": "102 Tân Ấp, Phúc xá",
        "area": "Ba Đình",
        "entrance fee": "miễn phí",
        "id": "34",
        "location": [
            21.0404715,
            105.8054386
        ],
        "name": "Trường Trung cấp Kinh tế Hà Nội",
        "openhours": "Trường mở cửa từ thứ hai đến thứ sáu hàng tuần , từ 8:30 đến 17:30",
        "phone": "02437917748",
        "postcode": "cb58bl",
        "pricerange": "miễn phí",
        "type": "đại học"
    },
    {
        "address": "20 Thụy Khuê, Thuỵ Khuê, Tây Hồ",
        "area": "Tây Hồ",
        "entrance fee": "?",
        "id": "35",
        "location": [
            21.0017454,
            105.7812022
        ],
        "name": "Bể bơi Sense Aqua",
        "openhours": "?",
        "phone": "0932311311",
        "postcode": "cb43px",
        "pricerange": "?",
        "type": "bể bơi"
    },
    {
        "address": "1 Láng Hạ, Chợ Dừa",
        "area": "Ba Đình",
        "entrance fee": "150,000 vnđ",
        "id": "36",
        "location": [
            21.0177598,
            105.812593
        ],
        "name": "Club Ngân Hà",
        "openhours": "mở cửa từ 10:00 p.m đến 4:00 a.m",
        "phone": "02435146776",
        "postcode": "cb23qb",
        "pricerange": "vừa phải",
        "type": "câu lạc bộ đêm"
    },
    {
        "address": "Lô D26, Khu đô thị mới, Cầu Giấy",
        "area": "Cầu Giấy",
        "entrance fee": "miễn phí",
        "id": "37",
        "location": [
            21.0326505,
            105.7953839
        ],
        "name": "Bảo Tàng Viettel - Viettel Museum",
        "openhours": "mở cửa từ 11:30 a.m đến 5:00 p.m",
        "phone": "01223748100",
        "postcode": "cb30aq",
        "pricerange": "miễn phí",
        "type": "bảo tàng"
    },
    {
        "address": "10 Nguyễn Trường Tộ, Nguyễn Trung Trực",
        "area": "Ba Đình",
        "entrance fee": "miễn phí",
        "id": "38",
        "location": [
            21.0365849,
            105.7814185
        ],
        "name": "Trung Tâm Dạy Nghề Quận Ba Đình",
        "openhours": "Trường mở cửa từ thứ hai đến thứ sáu hàng tuần , từ 7:30 đến 16:30",
        "phone": "02437688977",
        "postcode": "cb21st",
        "pricerange": "miễn phí",
        "type": "đại học"
    },
    {
        "address": "124 Âu Cơ, Tứ Liên, Tây Hồ, Hà Nội, Việt Nam",
        "area": "Tây Hồ",
        "entrance fee": "?",
        "id": "39",
        "location": [
            21.0719202,
            105.8285998
        ],
        "name": "The Spot - Pool & Leisure",
        "openhours": "?",
        "phone": "0975039434",
        "postcode": "cb42xh",
        "pricerange": "?",
        "type": "bể bơi"
    },
    {
        "address": "19C Hoàng Diệu, Điện Bàn",
        "area": "Ba Đình",
        "entrance fee": "miễn phí",
        "id": "40",
        "location": [
            21.0335039,
            105.8372977
        ],
        "name": "Hoàng Thành Thăng Long",
        "openhours": "mở cửa hàng ngày từ 8:00 đến 17:00",
        "phone": "02437345427",
        "postcode": "cb21qy",
        "pricerange": "miễn phí",
        "type": "công trình kiến trúc"
    },
    {
        "address": "216 Trần Quang Khải",
        "area": "Cầu Giấy",
        "entrance fee": "miễn phí",
        "id": "41",
        "location": [
            21.0454524,
            105.7970431
        ],
        "name": "Bảo tàng Lịch sử Quốc gia",
        "openhours": "mở cửa hàng ngày sáng từ 8:30 đến 11:30 , chiều từ 13:30 đến 17:00 trừ thứ 2 đầu tháng",
        "phone": "02466869034",
        "postcode": "cb30aq",
        "pricerange": "miễn phí",
        "type": "bảo tàng"
    },
    {
        "address": "171 P. Trung Kính, Yên Hoà",
        "area": "Cầu Giấy",
        "entrance fee": "miễn phí",
        "id": "42",
        "location": [
            21.0163146,
            105.7958491
        ],
        "name": "Trường Đại học Phương Đông",
        "openhours": "mở cửa từ thứ hai đến thứ sau , từ 7:00 đến 17:30",
        "phone": "02437848515",
        "postcode": "cb30ag",
        "pricerange": "miễn phí",
        "type": "đại học"
    },
    {
        "address": "Ngã 3 Phố Nhật Chiêu, Nhật Tân, Tây Hồ",
        "area": "Tây Hồ",
        "entrance fee": "miễn phí",
        "id": "43",
        "location": [
            21.0746058,
            105.810741
        ],
        "name": "Thung lũng hoa hồ Tây",
        "openhours": "always",
        "phone": "0839968968",
        "postcode": "cb46az",
        "pricerange": "miễn phí",
        "type": "công viên"
    },
    {
        "address": "87 Láng Hạ, Chợ Dừa",
        "area": "Ba Đình",
        "entrance fee": "?",
        "id": "44",
        "location": [
            21.0163545,
            105.7958491
        ],
        "name": "Nhà hát Star Galaxy",
        "openhours": "?",
        "phone": "02436646969",
        "postcode": "cb11pt",
        "pricerange": "?",
        "type": "nhà hát"
    },
    {
        "address": "Ba đình",
        "area": "Ba Đình",
        "entrance fee": "miễn phí",
        "id": "45",
        "location": [
            21.036793,
            105.8218557
        ],
        "name": "Phòng họp Bộ chính trị",
        "openhours": "mở cửa hàng ngày trừ thứ sáu sáng từ 8:00 đến 11:00 , chiều từ 13:30 đến 16:30",
        "phone": "02462730994",
        "postcode": "cb23dz",
        "pricerange": "miễn phí",
        "type": "bảo tàng"
    },
    {
        "address": "D9, Làng Quốc tế Thăng Long",
        "area": "Cầu Giấy",
        "entrance fee": "miễn phí",
        "id": "46",
        "location": [
            21.0373528,
            105.7954412
        ],
        "name": "Bảo Tàng Tố Hữu",
        "openhours": "bảo tàng mở cửa vào thứ bảy hàng tuần từ 9:00 đến 17:00",
        "phone": "0983801920",
        "postcode": "cb39da",
        "pricerange": "miễn phí",
        "type": "bảo tàng"
    },
    {
        "address": "78 Ngõ Giếng, Chợ Dừa, Đống Đa",
        "area": "Đống Đa",
        "entrance fee": "?",
        "id": "47",
        "location": [
            21.0186333,
            105.8242634
        ],
        "name": "Clb Bida Vtc Club",
        "openhours": "",
        "phone": "0907418456",
        "postcode": "cb17dy",
        "pricerange": "?",
        "type": "khu vui chơi giải trí"
    },
    {
        "address": "Số 2 Hùng Vương, Ngọc Hồ",
        "area": "Ba Đình",
        "entrance fee": "miễn phí",
        "id": "48",
        "location": [
            21.0345078,
            105.8263489
        ],
        "name": "Văn phòng Chủ tịch nước",
        "openhours": "mở cửa vào thứ hai đến thứ sáu hàng tuần từ 7:00 đến 16:00",
        "phone": "08043176",
        "postcode": "cb21tt",
        "pricerange": "miễn phí",
        "type": "công trình kiến trúc"
    },
    {
        "address": "Ngõ 97 Văn Cao, Liễu Giai",
        "area": "Ba Đình",
        "entrance fee": "?",
        "id": "49",
        "location": [
            21.0345277,
            105.8263489
        ],
        "name": "Bể bơi Khăn Quàng Đỏ",
        "openhours": "?",
        "phone": "01223446100",
        "postcode": "cb11ly",
        "pricerange": "?",
        "type": "bể bơi"
    },
    {
        "address": "2/2C Khu Ngoại giao Đoàn Vạn Phúc, Kim Mã, Ngọc Khánh",
        "area": "Ba Đình",
        "entrance fee": "miễn phí",
        "id": "50",
        "location": [
            21.0345769,
            105.8132168
        ],
        "name": "Trường cao đẳng Quốc tế Pegasus",
        "openhours": "mở cửa vào thứ hai đến thứ sáu hàng tuần từ 8:30 đến 17:00",
        "phone": "02437547461",
        "postcode": "cb21rf",
        "pricerange": "miễn phí",
        "type": "đại học"
    },
    {
        "address": "290 Đ. Lạc Long Quân, Bưởi",
        "area": "Cầu Giấy",
        "entrance fee": "miễn phí",
        "id": "51",
        "location": [
            21.0512555,
            105.804977
        ],
        "name": "Bảo tàng Công Binh",
        "openhours": "mở cửa vào thứ hai đến thứ sáu hàng tuần từ 8:00 đến 18:00",
        "phone": "02437590378",
        "postcode": "cb3ojg",
        "pricerange": "miễn phí",
        "type": "bảo tàng"
    },
    {
        "address": "463 Đội Cấn, Vĩnh Phú",
        "area": "Ba Đình",
        "entrance fee": "miễn phí",
        "id": "52",
        "location": [
            21.0133423,
            105.7980247
        ],
        "name": "Bảo tàng Pháo binh",
        "openhours": "bảo tàng mở cửa hàng ngày , sáng từ 8:00 đến 11:30 , chiều từ 13:30 đến 17:00",
        "phone": "01223357708",
        "postcode": "cb21sj",
        "pricerange": "miễn phí",
        "type": "bảo tàng"
    },
    {
        "address": "Khu văn hóa nghệ thuật, Ngõ 76 Mai Dịch, Mai Dịch",
        "area": "Cầu Giấy",
        "entrance fee": "75,000 vnđ",
        "id": "53",
        "location": [
            21.0319478,
            105.7876392
        ],
        "name": "Trường Đại học Sân khấu Điện ảnh Hà Nội",
        "openhours": "trường mở cửa hàng tuần từ thứ hai đến thứ sáu , từ 8:00 đến 17:00 , đóng cửa vào thứ bảy và chủ nhật",
        "phone": "02437643397",
        "postcode": "cb39et",
        "pricerange": "vừa phải",
        "type": "đại học"
    },
    {
        "address": "28A Điện Biên Phủ, Điện Bàn",
        "area": "Ba Đình",
        "entrance fee": "miễn phí",
        "id": "54",
        "location": [
            21.0118377,
            105.7916732
        ],
        "name": "Cột cờ Hà Nội",
        "openhours": "?",
        "phone": "069553215",
        "postcode": "cb11er",
        "pricerange": "miễn phí",
        "type": "bảo tàng"
    },
    {
        "address": "1 Phố Yên Hoa, Yên Phụ, Tây Hồ",
        "area": "Tây Hồ",
        "entrance fee": "?",
        "id": "55",
        "location": [
            21.0502407,
            105.8359742
        ],
        "name": "Bay Buffet Seafood Hồ Tây",
        "openhours": "?",
        "phone": "02432669380",
        "postcode": "cb43ax",
        "pricerange": "?",
        "type": "thuyền cho thuê"
    },
    {
        "address": "Hùng Vương, Điện Bàn",
        "area": "Ba Đình",
        "entrance fee": "miễn phí",
        "id": "56",
        "location": [
            20.9997787,
            105.7587143
        ],
        "name": "Quảng Trường Ba Đình",
        "openhours": "?",
        "phone": "024829137",
        "postcode": "cb11pt",
        "pricerange": "miễn phí",
        "type": "bảo tàng"
    },
    {
        "address": "67 Lý Thường Kiệt, Trần Hưng Đạo, Hoàn Kiếm",
        "area": "Hoàn Kiếm",
        "entrance fee": "miễn phí",
        "id": "57",
        "location": [
            21.0242994,
            105.843628
        ],
        "name": "Bảo tàng Công An Hà Nội",
        "openhours": "?",
        "phone": "02439331496",
        "postcode": "cb13ew",
        "pricerange": "miễn phí",
        "type": "bảo tàng"
    },
    {
        "address": "207 Giải Phóng, Đồng Tâm",
        "area": "Ba Đình",
        "entrance fee": "miễn phí",
        "id": "58",
        "location": [
            20.9997036,
            105.8432315
        ],
        "name": "Trường Đại Học Kinh Tế Quốc Dân",
        "openhours": "mở của từ thứ hai đến thứ bảy hàng tuần , từ 7:00 đến 21:30",
        "phone": "02436280280",
        "postcode": "cb21rl",
        "pricerange": "miễn phí",
        "type": "đại học"
    },
    {
        "address": "1 Đại Cồ Việt, Bách Khoa",
        "area": "Ba Đình",
        "entrance fee": "70,000 vnđ",
        "id": "59",
        "location": [
            21.0070303,
            105.8409473
        ],
        "name": "Trường Đại Học Bách Khoa Hà Nội",
        "openhours": "mở của mọi ngày trong tuần , từ 7:00 đến 17:00",
        "phone": "02436231732",
        "postcode": "cb21tp",
        "pricerange": "vừa phải",
        "type": "đại học"
    },
    {
        "address": "2 Trần Hưng Đạo, Phan Chu Trinh",
        "area": "Ba Đình",
        "entrance fee": "miễn phí",
        "id": "60",
        "location": [
            21.0201852,
            105.8568045
        ],
        "name": "Bảo Tàng Biên Phòng Việt Nam",
        "openhours": "mở của từ thứ hai đến thứ sáu hàng tuần , từ 8:00 đến 17:00",
        "phone": "069518167",
        "postcode": "cb21er",
        "pricerange": "miễn phí",
        "type": "bảo tàng"
    },
    {
        "address": "Hoàng Diệu, Quán Thánh, Ba Đình",
        "area": "Ba Đình",
        "entrance fee": "?",
        "id": "61",
        "location": [
            21.0356182,
            105.8053297
        ],
        "name": "Khu Di tích Hoàng Thành",
        "openhours": "?",
        "phone": "01223359750",
        "postcode": "cb21rs",
        "pricerange": "?",
        "type": "thuyền cho thuê"
    },
    {
        "address": "354A Đường Lê Duẩn, Phương Liên, Đống Đa",
        "area": "Đống Đa",
        "entrance fee": "miễn phí",
        "id": "62",
        "location": [
            21.0109357,
            105.8401974
        ],
        "name": "Công Viên Thống Nhất",
        "openhours": "Công viên mở cửa cả ngày",
        "phone": "02435725720",
        "postcode": "cb22ad",
        "pricerange": "miễn phí",
        "type": "công viên"
    },
    {
        "address": "347, Đội Cấn",
        "area": "Ba Đình",
        "entrance fee": "miễn phí",
        "id": "63",
        "location": [
            21.0356182,
            105.8053297
        ],
        "name": "Trường Trung Cấp Kinh Tế Kỹ Thuật Thương Mại",
        "openhours": "mở cửa cả tuần trừ thứ 7 và chủ nhật",
        "phone": "01223338800",
        "postcode": "cb23hu",
        "pricerange": "miễn phí",
        "type": "đại học"
    },
    {
        "address": "18 Lương Ngọc Quyến, Hàng Buồm",
        "area": "Ba Đình",
        "entrance fee": "100,000 vnđ",
        "id": "64",
        "location": [
            21.0438782,
            105.7676755
        ],
        "name": "The Opera NightClub",
        "openhours": "quán Bar mở cửa từ thứ hai đến chủ nhật , từ 21h đến 3h sáng",
        "phone": "0989264242",
        "postcode": "cb23qf",
        "pricerange": "rẻ",
        "type": "câu lạc bộ đêm"
    },
    {
        "address": "319 Tây Sơn, Ngã Tư Sở, Đống Đa",
        "area": "Đống Đa",
        "entrance fee": "?",
        "id": "65",
        "location": [
            21.0036102,
            105.8192334
        ],
        "name": "Billiards Club Tây Sơn",
        "openhours": "?",
        "phone": "0839127888",
        "postcode": "cb17dy",
        "pricerange": "?",
        "type": "khu vui chơi giải trí"
    },
    {
        "address": "523 Kim Mã, Ngọc Khánh, Ba Đình",
        "area": "Ba Đình",
        "entrance fee": "?",
        "id": "66",
        "location": [
            21.0296628,
            105.8086661
        ],
        "name": "Rạp Ngọc Khánh",
        "openhours": "?",
        "phone": "02437712750",
        "postcode": "cb23qe",
        "pricerange": "?",
        "type": "nhà hát"
    },
    {
        "address": "306B Kim Mã, Ngọc Khánh, Ba Đình",
        "area": "Ba Đình",
        "entrance fee": "?",
        "id": "67",
        "location": [
            21.0296876,
            105.8021
        ],
        "name": "Đền Voi Phục",
        "openhours": "?",
        "phone": "07807718591",
        "postcode": "cb41as",
        "pricerange": "?",
        "type": "thuyền cho thuê"
    },
    {
        "address": "223 Hồng Hà, Phúc Tân, Hoàn Kiếm",
        "area": "Hoàn Kiếm",
        "entrance fee": "?",
        "id": "68",
        "location": [
            21.039979,
            105.8507409
        ],
        "name": "Trung Tâm Thể Dục Thể Thao Quận Hoàn Kiếm",
        "openhours": "trung tâm mở cửa từ 8h sáng đến 6h chiều , tất cả các ngày trong tuần",
        "phone": "02438287214",
        "postcode": "cb19ej",
        "pricerange": "?",
        "type": "khu phức hợp thể thao"
    },
    {
        "address": "31 Ngõ 12 Phố Đào Tấn, Cống Vị, Ba Đình",
        "area": "Ba Đình",
        "entrance fee": "150,000 vnđ",
        "id": "69",
        "location": [
            21.0334795,
            105.800587
        ],
        "name": "G CLUB",
        "openhours": "Quán mở cửa từ 7h tối đến 1h sáng các ngày trong tuần",
        "phone": "0375276257",
        "postcode": "cb23hx",
        "pricerange": "vừa phải",
        "type": "câu lạc bộ đêm"
    },
    {
        "address": "157 Đội Cấn, Ngọc Hồ, Ba Đình",
        "area": "Ba Đình",
        "entrance fee": "miễn phí",
        "id": "70",
        "location": [
            21.0354342,
            105.8172601
        ],
        "name": "Bảo tàng Chiến thắng B-52",
        "openhours": "mở cửa từ 8h sáng đến 4h30 chiều , trừ thứ 2 và thứ 6",
        "phone": "01223332900",
        "postcode": "cb21rb",
        "pricerange": "miễn phí",
        "type": "bảo tàng"
    },
    {
        "address": "30d Mai Anh Tuấn, Chợ Dừa, Đống Đa",
        "area": "Đống Đa",
        "entrance fee": "?",
        "id": "71",
        "location": [
            21.0356836,
            105.7909954
        ],
        "name": "Nhà hát kịch công an nhân dân",
        "openhours": "?",
        "phone": "02438314522",
        "postcode": "cb17gx",
        "pricerange": "?",
        "type": "nhà hát"
    },
    {
        "address": "77 Hào Nam, Chợ Dừa, Đống Đa",
        "area": "Ba Đình",
        "entrance fee": "?",
        "id": "72",
        "location": [
            21.0358366,
            105.7909953
        ],
        "name": "Phòng hoà nhạc học viện âm nhạc quốc gia việt nam",
        "openhours": "?",
        "phone": "0918152992",
        "postcode": "cb12lf",
        "pricerange": "?",
        "type": "phòng hòa nhạc"
    },
    {
        "address": "6 Chùa Bộc, Quang Trung, Đống Đa",
        "area": "Đống Đa",
        "entrance fee": "?",
        "id": "73",
        "location": [
            21.0361427,
            105.7909953
        ],
        "name": "Airport Exclusive Club",
        "openhours": "quán mở cửa từ 21h đến 3h sáng , tất cả các ngày trong tuần",
        "phone": "0963436969",
        "postcode": "cb23hg",
        "pricerange": "vừa phải",
        "type": "câu lạc bộ đêm"
    },
    {
        "address": "103 Phúc xá",
        "area": "Ba Đình",
        "entrance fee": "100,000 vnđ",
        "id": "74",
        "location": [
            21.0364488,
            105.7909952
        ],
        "name": "Cao Đẳng Y Tế Hà Nội",
        "openhours": "nhà hát mở cửa từ 9h sáng tới 5h chiều .",
        "phone": "02438314522",
        "postcode": "cb21tq",
        "pricerange": "rẻ",
        "type": "đại học"
    },
    {
        "address": "29 Liễu Giai, Ngọc Khánh, Ba Đình",
        "area": "Ba Đình",
        "entrance fee": "?",
        "id": "75",
        "location": [
            21.0366019,
            105.7908235
        ],
        "name": "CGV Vincom Metropolis Liễu Giai",
        "openhours": "?",
        "phone": "019006017",
        "postcode": "cb11ps",
        "pricerange": "?",
        "type": "rạp chiếu phim"
    },
    {
        "address": "58 Quốc Tử Giám, Văn Miếu, Đống Đa",
        "area": "Đống Đa",
        "entrance fee": "miễn phí",
        "id": "76",
        "location": [
            21.0274223,
            105.8332455
        ],
        "name": "Vườn hoa Quốc Tử Giám",
        "openhours": "always",
        "phone": "0239473927",
        "postcode": "cb223ae",
        "pricerange": "miễn phí",
        "type": "công viên"
    },
    {
        "address": "Phạm Hùng, Mỹ Đình, Cầu Giấy",
        "area": "Cầu Giấy",
        "entrance fee": "?",
        "id": "77",
        "location": [
            21.0237068,
            105.759384
        ],
        "name": "Cung Thiếu Nhi Cầu Giấy",
        "openhours": "it opens from 09:30 a.m. to 6:00 p.m. daily",
        "phone": "0284739173",
        "postcode": "cb238el",
        "pricerange": "?",
        "type": "khu vui chơi giải trí"
    },
    {
        "address": "Nhà A20 - số, 18 Hoàng Quốc Việt, Nghĩa Đô",
        "area": "Ba Đình",
        "entrance fee": "miễn phí",
        "id": "78",
        "location": [
            21.0390345,
            105.7975479
        ],
        "name": "Bảo tàng Thiên nhiên Việt Nam",
        "openhours": "mở cửa tất cả các ngày trong tuần trừ thứ 2 , từ 8h30 đến 16h30",
        "phone": "01223330906",
        "postcode": "cb23rh",
        "pricerange": "miễn phí",
        "type": "bảo tàng"
    },
    {
        "address": "23 Giang Văn Minh, Kim Mã, Ba Đình",
        "area": "Ba Đình",
        "entrance fee": "miễn phí",
        "id": "79",
        "location": [
            21.0391128,
            105.797462
        ],
        "name": "Bảo Tàng Binh Chủng Thông Tin",
        "openhours": "mở cửa từ thứ 2 đến thứ 7 , 8h sáng đến 7h tối",
        "phone": "069588727",
        "postcode": "cb12lj",
        "pricerange": "miễn phí",
        "type": "bảo tàng"
    }
]